City_ID,City,Lat,Lng,Max Temp,Humidity,Cloudiness,Wind Speed,Country,Date
0,puerto natales,-51.7236,-72.4875,63.05,45,75,11.5,CL,1732562033
1,emerald,-23.5333,148.1667,69.22,79,100,8.03,AU,1732562203
2,ust-nera,64.5667,143.2,-25.73,98,53,4.5,RU,1732562224
3,west island,-12.1568,96.8225,78.78,94,75,12.66,CC,1732562245
4,enewetak,11.3474,162.3373,82.56,83,92,18.3,MH,1732562016
5,longyearbyen,78.2186,15.6401,12.04,79,100,20.71,SJ,1732562288
6,valdivia,-39.8142,-73.2459,53.69,98,100,3.15,CL,1732562081
7,carnarvon,-24.8667,113.6333,68.94,67,2,25.88,AU,1732562293
8,yanchep,-31.55,115.6833,54.21,52,0,12.82,AU,1732562351
9,hawaiian paradise park,19.5933,-154.9731,76.89,84,20,1.01,US,1732562373
10,thompson,55.7435,-97.8558,10.56,79,100,8.05,CA,1732562224
11,udachny,66.4167,112.4,-4.97,96,100,25.7,RU,1732562415
12,kokopo,-4.352,152.2633,77.27,84,96,3.58,PG,1732562436
13,olonkinbyen,70.9221,-8.7187,25.99,61,100,15.7,SJ,1732562457
14,tsetserleg,47.475,101.4542,12.13,54,100,9.19,MN,1732562473
15,queenstown,-31.8976,26.8753,77.13,50,100,3.98,ZA,1732562373
16,yamada,39.4667,141.95,36.1,79,10,3.89,JP,1732562522
17,invercargill,-46.4,168.35,57.02,67,30,18.01,NZ,1732562543
18,upington,-28.4478,21.2561,84.58,10,3,10.36,ZA,1732562564
19,edinburgh of the seven seas,-37.0676,-12.3116,55.31,69,97,11.95,SH,1732562585
20,badger,64.8,-147.5333,19.98,89,100,4.61,US,1732562606
21,hamilton,39.1834,-84.5333,62.78,79,100,16.11,US,1732562461
22,sesheke,-17.4759,24.2968,69.98,72,7,4.16,ZM,1732562649
23,sur,22.5667,59.5289,76.59,69,0,5.3,OM,1732562670
24,tazovsky,67.4667,78.7,19.2,87,27,18.03,RU,1732562691
25,iqaluit,63.7506,-68.5145,2.93,71,75,11.5,CA,1732562713
26,altai,46.3722,96.2583,1.04,94,57,5.39,MN,1732562734
27,adamstown,-25.066,-130.1015,72.12,77,21,16.51,PN,1732562755
28,cabo san lucas,22.8909,-109.9124,83.75,43,40,4.61,MX,1732562518
29,dudinka,69.4058,86.1778,21.6,93,100,20.04,RU,1732562798
30,grytviken,-54.2811,-36.5092,37.06,80,100,5.91,GS,1732562819
31,port-aux-francais,-49.35,70.2167,40.08,95,100,33.84,TF,1732562840
32,bodo,67.28,14.405,37.44,93,75,14.97,NO,1732562862
33,tamandare,-8.7597,-35.1047,81.36,68,11,12.1,BR,1732562883
34,suoyarvi,62.0833,32.35,36.21,99,100,17.25,RU,1732562905
35,waitangi,-43.9535,-176.5597,58.82,91,21,5.99,NZ,1732562948
36,touros,-5.1989,-35.4608,82.89,60,90,12.59,BR,1732562969
37,margate,51.3813,1.3862,46.87,79,100,18.07,GB,1732562990
38,lhokseumawe,5.1801,97.1507,78.24,86,100,1.45,ID,1732563011
39,karratha,-20.7377,116.8463,80.11,55,95,13.78,AU,1732563033
40,san patricio,28.017,-97.5169,84.15,42,3,8.81,US,1732563054
41,flying fish cove,-10.4217,105.6791,81.45,78,100,3.69,CX,1732563075
42,villa gesell,-37.2639,-56.973,64.87,63,0,20.85,AR,1732562799
43,hermanus,-34.4187,19.2345,61.81,73,100,20.4,ZA,1732563139
44,salalah,17.0151,54.0924,78.89,73,20,3.44,OM,1732563160
45,ribeira grande,38.5167,-28.7,66.78,88,40,10.36,PT,1732563182
46,alofi,-19.0595,-169.9187,80.49,83,75,11.5,NU,1732563203
47,ternate,0.8,127.4,80.49,80,98,3.78,ID,1732563225
48,tommot,58.9564,126.2925,-11.94,100,94,1.23,RU,1732563246
49,kununurra,-15.7667,128.7333,78.78,94,65,0.0,AU,1732563267
50,benevento,41.2179,14.7464,52.34,61,93,2.01,IT,1732563289
51,christchurch,-43.5333,172.6333,56.95,88,100,9.22,NZ,1732563070
52,albany,42.6001,-73.9662,47.34,52,47,1.01,US,1732563203
53,zyrya,40.3661,50.2917,50.09,86,100,16.24,AZ,1732563352
54,heihe,50.2441,127.4902,27.18,96,100,13.22,CN,1732563374
55,itoman,26.1247,127.6694,75.58,78,75,8.05,JP,1732563395
56,college,64.8569,-147.8028,20.07,84,100,4.61,US,1732563416
57,stanley,54.868,-1.6985,42.82,80,0,17.27,GB,1732563276
58,sinabang,2.4803,96.3801,77.77,89,100,7.0,ID,1732563459
59,bethel,41.3712,-73.414,52.02,45,0,10.36,US,1732563480
60,felipe carrillo puerto,19.5833,-88.05,83.64,44,2,3.06,MX,1732563501
61,goiatuba,-18.0125,-49.3547,78.85,65,68,6.69,BR,1732563522
62,avarua,-21.2078,-159.775,77.05,83,100,3.44,CK,1732563543
63,nagqu,31.5,92.0,16.61,25,34,2.53,CN,1732563402
64,sorong,-0.8833,131.25,79.7,84,100,4.05,ID,1732563586
65,ilulissat,69.2167,-51.1,28.42,93,75,9.22,GL,1732563607
66,dores do indaia,-19.4633,-45.6017,76.12,64,24,6.2,BR,1732563628
67,howard springs,-12.497,131.047,78.71,95,100,3.06,AU,1732563671
68,tiksi,71.6872,128.8694,0.19,59,41,21.09,RU,1732563692
69,galliano,29.4422,-90.2992,78.8,53,0,12.66,US,1732563714
70,papatowai,-46.5619,169.4708,56.32,67,42,16.17,NZ,1732563735
71,parry sound,45.3501,-80.033,33.85,64,100,5.68,CA,1732563756
72,talnakh,69.4865,88.3972,19.63,96,100,9.04,RU,1732563777
73,thinadhoo,0.5333,72.9333,81.46,81,100,13.87,MV,1732563799
74,mana,5.6592,-53.7767,82.15,77,36,10.65,GF,1732563820
75,yellowknife,62.456,-114.3525,18.41,96,100,16.11,CA,1732563842
76,paoua,7.2427,16.4406,72.36,31,54,3.33,CF,1732563863
77,fortuna,40.5982,-124.1573,55.98,93,75,10.36,US,1732563884
78,blackmans bay,-43.0167,147.3167,57.33,93,51,2.51,AU,1732563905
79,hasaki,35.7333,140.8333,56.34,53,33,2.1,JP,1732563927
80,north shore,-36.8,174.75,64.47,85,100,5.99,NZ,1732563948
81,kerikeri,-35.2268,173.9474,65.91,77,100,3.0,NZ,1732563969
82,cambria,35.5641,-121.0808,55.24,93,100,8.01,US,1732563991
83,dhidhdhoo,6.8833,73.1,82.27,72,100,7.74,MV,1732564013
84,yasothon,15.75,104.1333,73.31,80,11,11.9,TH,1732564034
85,ambodifotatra,-16.9833,49.85,79.68,77,100,10.02,MG,1732564055
86,meizhou,24.2977,116.1072,60.06,81,100,6.6,CN,1732564076
87,payson,40.0444,-111.7321,40.24,58,100,1.43,US,1732564098
88,anadyr,64.75,177.4833,5.5,78,100,13.42,RU,1732564140
89,bilibino,68.0546,166.4372,-30.64,99,40,3.02,RU,1732564161
90,la ronge,55.1001,-105.2842,8.85,85,100,6.91,CA,1732564182
91,cuajinicuilapa,16.4667,-98.4167,88.52,54,23,8.32,MX,1732564204
92,kapa'a,22.0752,-159.319,79.48,78,20,3.44,US,1732564225
93,kruisfontein,-34.0033,24.7314,63.0,84,100,16.51,ZA,1732564246
94,wagar,16.1525,36.2032,81.01,20,0,12.53,SD,1732564267
95,mil'kovo,55.6078,37.7956,28.63,67,100,8.01,RU,1732564289
96,namie,37.4833,141.0,43.0,76,54,3.94,JP,1732564310
97,puerto baquerizo moreno,-0.9,-89.6,79.79,61,40,17.27,EC,1732564331
98,ushuaia,-54.8,-68.3,55.06,50,0,19.57,AR,1732564156
99,qaqortoq,60.7167,-46.0333,11.57,75,0,4.05,GL,1732564374
100,kudahuvadhoo,2.6708,72.8944,81.1,78,100,8.16,MV,1732564396
101,fort frances,48.5999,-93.4003,21.42,93,100,10.36,CA,1732564417
102,kodiak,57.79,-152.4072,27.91,93,0,3.44,US,1732564438
103,buka,40.8108,69.1986,47.41,34,20,3.91,UZ,1732564459
104,puerto ayora,-0.7393,-90.3518,76.55,76,29,8.99,EC,1732564481
105,port mathurin,-19.6833,63.4167,76.3,78,9,17.05,MU,1732564524
106,barra de santo antonio,-9.4047,-35.5072,79.52,77,21,12.48,BR,1732564545
107,el galpon,-25.3807,-64.6526,91.33,47,100,5.75,AR,1732564567
108,utrik,11.2278,169.8474,83.03,82,13,20.09,MH,1732564588
109,bredasdorp,-34.5322,20.0403,61.47,67,100,18.41,ZA,1732564609
110,masvingo,-20.0637,30.8277,68.59,74,100,1.72,ZW,1732564630
111,caraballeda,10.6112,-66.8522,89.67,58,64,11.5,VE,1732564652
112,whitehorse,60.7161,-135.0538,5.77,77,40,17.27,CA,1732564674
113,vernon,50.2581,-119.2691,32.94,79,100,3.44,CA,1732564696
114,sinop,41.7711,34.8709,33.58,99,100,4.36,TR,1732564738
115,deqen,29.9618,90.7188,23.77,31,0,1.25,CN,1732564759
116,saint-pierre,-21.3393,55.4781,76.68,78,75,11.5,RE,1732564780
117,margaret river,-33.95,115.0667,52.05,64,10,9.55,AU,1732564802
118,nova sintra,14.8667,-24.7167,78.15,76,32,19.77,CV,1732564823
119,mount pearl,47.5166,-52.7813,44.15,95,100,4.61,CA,1732564844
120,meulaboh,4.1363,96.1285,75.09,95,100,5.12,ID,1732564865
121,iskateley,67.6803,53.1512,28.63,94,100,32.61,RU,1732564886
122,minas de marcona,-15.2119,-75.1103,67.03,54,60,17.94,PE,1732564709
123,fort-shevchenko,44.5086,50.263,49.5,59,100,9.33,KZ,1732564929
124,san luis de la loma,17.2706,-100.8939,82.62,73,27,5.53,MX,1732564938
125,pinhao,-25.6956,-51.6597,79.02,43,100,3.18,BR,1732564918
126,hami,42.8,93.45,24.84,61,0,4.76,CN,1732564992
127,veraval,20.9,70.3667,74.55,43,98,10.58,IN,1732565013
128,port elizabeth,-33.918,25.5701,68.29,91,75,17.27,ZA,1732564837
129,chonchi,-42.6128,-73.8092,58.12,86,97,6.26,CL,1732565056
130,beni,0.5,29.4667,63.3,98,100,1.03,CD,1732565077
131,valparaiso,-33.0393,-71.6273,77.23,37,0,16.11,CL,1732565098
132,nar'yan-mar,67.6713,53.087,28.62,94,100,32.77,RU,1732565120
133,kalmunai,7.4167,81.8167,74.89,96,100,5.28,LK,1732565141
134,lebu,-37.6167,-73.65,59.54,78,97,15.39,CL,1732565163
135,chabahar,25.2919,60.643,78.26,64,0,5.28,IR,1732565184
136,goure,13.9835,10.2704,71.28,20,18,9.78,NE,1732565205
137,jiamusi,46.8333,130.35,23.92,94,100,6.53,CN,1732565227
138,ola,59.5833,151.2833,3.42,70,81,11.56,RU,1732565248
139,weno,7.4515,151.8468,84.15,89,100,6.91,FM,1732565269
140,arraial do cabo,-22.9661,-42.0278,76.86,61,0,18.41,BR,1732565290
141,severo-yeniseyskiy,60.3725,93.0408,20.25,94,98,9.86,RU,1732565311
142,hays,30.0502,-98.0336,82.31,61,4,18.88,US,1732565332
143,waingapu,-9.6567,120.2641,82.44,76,100,1.77,ID,1732565354
144,pindushi,62.9152,34.58,37.47,97,100,14.72,RU,1732565375
145,vadso,70.0744,29.7487,32.16,80,20,19.57,NO,1732565396
146,san pedro,14.35,121.0167,80.19,90,20,2.3,PH,1732565311
147,kampene,-3.6,26.6667,70.59,92,86,1.9,CD,1732565438
148,fisterra,42.9049,-9.2629,59.18,65,78,15.64,ES,1732565460
149,san luis,-33.295,-66.3356,84.52,43,44,7.94,AR,1732565233
150,santa cruz,-17.8,-63.1667,93.25,52,20,16.11,BO,1732565312
151,constantia,44.1833,28.65,29.08,54,0,7.56,RO,1732565523
152,toliara,-23.35,43.6667,79.93,77,18,6.38,MG,1732565544
153,saipan,15.1355,145.701,83.1,86,40,12.66,MP,1732565565
154,aban,56.67,96.06,19.56,88,20,9.93,RU,1732565587
155,alice springs,-23.7,133.8833,72.95,83,0,10.36,AU,1732565608
156,petropavlovsk-kamchatsky,53.0452,158.6483,21.79,80,0,8.95,RU,1732565629
157,susuman,62.7833,148.1667,-32.85,96,11,0.69,RU,1732565650
158,piterka,50.6803,47.4454,29.89,73,93,8.12,RU,1732565672
159,negapatam,10.7667,79.8333,74.64,92,100,8.01,IN,1732565693
160,afaahiti,-17.75,-149.2833,76.73,84,94,14.41,PF,1732565714
161,vorgashor,67.5833,63.95,21.24,91,100,23.04,RU,1732565735
162,wenxing,28.6667,112.8833,46.8,75,99,5.21,CN,1732565756
163,ondjiva,-17.0667,15.7333,80.8,39,24,3.76,AO,1732565778
164,putnok,48.3,20.4333,33.39,59,37,1.7,HU,1732565799
165,mossendjo,-2.9506,12.7261,71.26,99,100,3.15,CG,1732565820
166,mitu,1.1983,-70.1733,89.64,52,60,2.53,CO,1732565558
167,new norfolk,-42.7826,147.0587,57.7,84,65,0.54,AU,1732565784
168,utuado,18.2655,-66.7004,86.27,67,98,1.01,PR,1732565884
169,kenai,60.5544,-151.2583,34.02,97,100,5.75,US,1732565905
170,brezina,33.0989,1.2608,56.19,54,91,4.99,DZ,1732565671
171,khanpur,28.6453,70.6567,68.0,39,0,3.76,PK,1732565947
172,bechar,31.6167,-2.2167,57.52,47,0,5.75,DZ,1732565969
173,nadvoitsy,63.8667,34.3167,38.34,95,100,18.05,RU,1732565990
174,quellon,-43.1167,-73.6167,53.89,83,96,9.73,CL,1732566011
175,kingston,17.997,-76.7936,83.35,74,75,20.71,JM,1732565814
176,khandyga,62.6667,135.6,-24.3,99,24,1.72,RU,1732566054
177,st. john's,47.5649,-52.7093,44.98,96,100,5.75,CA,1732565877
178,paita,-5.0892,-81.1144,72.59,73,26,16.6,PE,1732566096
179,thunder bay,48.4001,-89.3168,30.18,93,100,4.61,CA,1732565829
180,ta`u,-14.2336,-169.5144,81.14,79,77,10.89,AS,1732566139
181,egersund,58.4513,5.9997,47.44,79,68,27.31,NO,1732566160
182,norilsk,69.3535,88.2027,20.53,94,100,13.65,RU,1732566181
183,siracusa,37.0881,15.2792,59.83,62,9,3.87,IT,1732566202
184,ancud,-41.8697,-73.8203,53.78,80,77,12.53,CL,1732566073
185,goundam,16.4145,-3.6708,82.22,10,9,9.15,ML,1732566245
186,atafu village,-8.5421,-172.5159,83.79,73,20,17.94,TK,1732566288
187,tura,25.5198,90.2201,60.04,86,55,3.69,IN,1732566309
188,alesund,62.4723,6.1549,48.34,61,20,9.22,NO,1732566330
189,wailua homesteads,22.0669,-159.378,79.12,74,0,11.5,US,1732566351
190,vila franca do campo,37.7167,-25.4333,66.61,99,99,14.56,PT,1732566372
191,midvagur,62.0511,-7.1939,38.23,56,100,27.63,FO,1732566394
192,peniche,39.3558,-9.3811,58.44,90,100,3.4,PT,1732566263
193,shimoda,34.6667,138.95,53.13,76,97,10.13,JP,1732566436
194,isafjordur,66.0755,-23.124,23.85,81,7,11.16,IS,1732566457
195,merritt,50.1123,-120.7942,26.33,72,100,1.99,CA,1732566478
196,malango,-2.9627,119.9001,67.37,98,100,1.32,ID,1732566500
197,trail,49.0998,-117.7022,36.68,100,100,2.46,CA,1732566521
198,la sarre,48.8002,-79.1996,33.39,77,100,1.72,CA,1732566542
199,inari,68.906,27.0288,19.99,90,61,4.88,FI,1732566564
200,pimenta bueno,-11.6725,-61.1936,90.34,54,58,4.88,BR,1732566585
201,howrah,22.5892,88.3103,66.2,77,20,3.44,IN,1732566606
202,greenville,35.6127,-77.3663,72.12,38,0,6.91,US,1732566336
203,ponta delgada,37.7333,-25.6667,66.92,82,75,14.97,PT,1732566598
204,jamestown,42.097,-79.2353,50.02,70,100,10.36,US,1732566670
205,jolo,6.05,121.0167,77.77,89,87,2.17,PH,1732566692
206,durban,-29.8579,31.0292,76.12,74,6,15.03,ZA,1732566714
207,ishqoshim,36.7248,71.6133,10.89,57,16,3.94,TJ,1732566735
208,ust-tsilma,65.441,52.1498,29.88,88,100,19.57,RU,1732566757
209,dosso,13.049,3.1937,75.54,18,15,9.46,NE,1732566778
210,hohhot,40.8106,111.6522,14.29,48,0,8.95,CN,1732566694
211,laojunmiao,39.8333,97.7333,19.15,32,95,6.29,CN,1732566820
212,pascagoula,30.3658,-88.5561,79.03,58,3,7.85,US,1732566626
213,prum,50.2167,6.4167,44.26,93,100,10.56,DE,1732566862
214,diveyevo,55.0433,43.2418,26.87,80,6,2.55,RU,1732566884
215,katabu,-4.9333,122.5167,75.49,93,94,0.89,ID,1732566905
216,nikolayevsk-on-amure,53.1406,140.73,4.68,94,25,1.99,RU,1732566926
217,ravar,31.2656,56.8055,62.55,39,100,3.0,IR,1732566948
218,kavieng,-2.5744,150.7967,83.84,79,97,12.88,PG,1732566969
219,labuan,5.2767,115.2417,79.16,94,20,2.3,MY,1732566775
220,jeddah,21.5169,39.2192,78.66,65,40,8.05,SA,1732567012
221,guilin,25.2819,110.2864,51.91,59,99,14.5,CN,1732567033
222,kidal,18.4411,1.4078,75.29,16,44,10.31,ML,1732567054
223,caconda,-13.7333,15.0667,62.92,89,82,3.91,AO,1732567075
224,monte azul,-15.155,-42.8747,72.05,81,88,4.23,BR,1732567097
225,siklos,45.855,18.2975,43.84,88,0,5.75,HU,1732567118
226,georgetown,5.4112,100.3354,78.75,89,20,3.44,MY,1732567006
227,borujen,31.9652,51.2873,41.47,88,32,5.28,IR,1732567160
228,isla mujeres,21.2311,-86.731,82.45,70,3,10.38,MX,1732567203
229,madang,-5.2246,145.7966,77.72,92,100,2.93,PG,1732568222
230,vila do maio,15.1333,-23.2167,78.15,72,7,14.88,CV,1732568243
231,huarmey,-10.0681,-78.1522,71.53,76,69,11.56,PE,1732568264
232,shache,38.4167,77.2406,37.69,48,60,5.3,CN,1732568307
233,vila velha,-20.3297,-40.2925,76.95,70,75,10.36,BR,1732568338
234,kaga bandoro,6.9896,19.1874,73.15,34,55,0.47,CF,1732568372
235,douglas,41.3,-96.167,37.42,45,0,14.0,US,1732568393
236,nuestra senora del rosario de caa cati,-27.7507,-57.6207,88.07,49,100,13.67,AR,1732568414
237,nyurba,63.2842,118.3319,-9.4,95,100,8.39,RU,1732568435
238,beau vallon,-20.4189,57.6953,75.43,83,40,8.05,MU,1732568457
239,soe,-9.8607,124.284,67.91,90,87,2.19,ID,1732568478
240,brandon,27.9378,-82.2859,79.32,49,0,1.99,US,1732568413
241,zabid,14.1951,43.3152,80.17,63,0,6.53,YE,1732568520
242,dalbandin,28.8947,64.4101,63.19,35,14,2.3,PK,1732568541
243,aasiaat,68.7098,-52.8699,27.03,76,100,14.23,GL,1732568563
244,aykhal,66.0,111.5,-8.75,97,100,28.48,RU,1732568584
245,porto novo,6.4965,2.6036,82.22,78,13,7.83,BJ,1732568605
246,xining,36.6167,101.7667,16.9,60,48,4.56,CN,1732568626
247,colonia,50.9333,6.95,50.97,87,20,3.44,DE,1732568406
248,maslova pristan',50.4587,36.7408,24.15,73,21,7.47,RU,1732568690
249,polyarnyy,69.1989,33.4478,28.94,82,32,20.0,RU,1732568522
250,todos santos,23.45,-110.2167,74.44,70,69,7.09,MX,1732568754
251,ambikapur,23.1167,83.2,52.63,61,55,2.77,IN,1732568775
252,rabigh,22.7986,39.0349,76.84,65,5,11.01,SA,1732568796
253,fale old settlement,-9.3852,-171.2468,83.52,74,47,15.46,TK,1732568818
254,baruun-urt,46.6806,113.2792,6.28,62,100,7.61,MN,1732568839
255,'alaqahdari dishu,30.4374,63.313,63.66,32,95,3.71,AF,1732568860
256,yulinshi,38.2906,109.7494,23.52,24,0,18.37,CN,1732568882
257,katsuura,35.1333,140.3,54.05,65,78,4.97,JP,1732568903
258,talara,-4.5772,-81.2719,75.96,64,0,14.97,PE,1732568749
259,namibe,-15.1961,12.1522,69.26,79,11,5.59,AO,1732568945
260,kharhial,20.2833,82.7667,57.67,67,92,1.07,IN,1732568966
261,haiku-pauwela,20.9219,-156.3051,78.82,72,75,8.05,US,1732568988
262,urucara,-2.5364,-57.76,93.78,42,46,3.4,BR,1732569009
263,fort-de-france,14.6089,-61.0733,79.74,83,30,13.85,MQ,1732569030
264,trincomalee,8.5711,81.2335,77.92,89,100,22.32,LK,1732569051
265,kailua-kona,19.6406,-155.9956,83.59,65,20,6.91,US,1732569072
266,al qitena,14.8648,32.3668,74.8,21,1,16.06,SD,1732569094
267,jiangzi,28.95,89.6333,18.03,70,0,6.55,CN,1732569115
268,labytnangi,66.6572,66.4183,14.5,89,100,10.42,RU,1732569136
269,labrador city,52.9463,-66.9114,31.91,99,100,20.0,CA,1732569157
270,island harbour,50.724,-1.2758,49.01,64,50,1.99,GB,1732569179
271,raymondville,26.4815,-97.7831,86.85,41,4,13.65,US,1732569179
272,prado,-17.3411,-39.2208,73.09,70,0,9.48,BR,1732569179
273,soufriere,13.8562,-61.0566,78.89,100,24,16.51,LC,1732569179
274,pangody,65.85,74.4859,15.98,90,53,14.38,RU,1732569179
275,tocopilla,-22.092,-70.1979,67.55,76,29,7.54,CL,1732569180
276,dridu,44.7,26.45,35.96,62,0,3.22,RO,1732569180
277,qeshm,26.9581,56.2719,80.1,69,3,8.48,IR,1732569180
278,oriximina,-1.7656,-55.8661,93.36,41,74,3.36,BR,1732569180
279,bulan,12.6667,123.9333,77.67,90,100,7.27,PH,1732569180
280,al ghayzah,16.2079,52.176,77.59,70,17,6.67,YE,1732569180
281,trinity beach,-16.7888,145.6968,76.89,73,31,8.05,AU,1732569180
282,hadibu,12.65,54.0333,78.04,71,42,7.74,YE,1732569181
283,ghanzi,-21.5667,21.7833,73.22,54,55,7.09,BW,1732569181
284,armacao de buzios,-22.7469,-41.8817,75.25,75,24,13.24,BR,1732568980
285,hithadhoo,-0.6,73.0833,82.67,77,100,15.73,MV,1732569181
286,constitucion,-35.3333,-72.4167,62.73,70,0,11.63,CL,1732569181
287,dourados,-22.2211,-54.8056,93.24,22,100,8.52,BR,1732568943
288,satipo,-11.2522,-74.6386,83.52,66,88,1.68,PE,1732569182
289,punta arenas,-53.15,-70.9167,53.71,54,0,12.66,CL,1732569182
290,tateyama,34.9833,139.8667,54.59,67,59,8.19,JP,1732569182
291,holualoa,19.6228,-155.9522,79.86,67,20,6.91,US,1732569182
292,walvis bay,-22.9575,14.5053,59.67,86,0,13.13,NA,1732569182
293,la'ie,21.6477,-157.9253,85.96,60,0,9.4,US,1732569182
294,marsa alam,25.0757,34.8918,65.93,35,0,9.08,EG,1732569113
295,grand falls-windsor,48.9332,-55.6649,42.51,95,100,3.0,CA,1732569182
296,kabansk,52.0486,106.6528,12.27,82,100,7.94,RU,1732569183
297,bardai,11.65,7.2333,67.48,24,9,8.52,NG,1732569183
298,kirensk,57.7853,108.1119,-12.66,98,81,2.98,RU,1732569183
299,zheshart,62.0731,49.5733,27.97,71,100,15.12,RU,1732569183
300,camocim,-2.9022,-40.8411,81.37,71,7,20.2,BR,1732568889
301,ar ruways,24.1103,52.7306,75.6,70,2,7.99,AE,1732569183
302,lompoc,34.6391,-120.4579,64.29,62,100,12.66,US,1732569184
303,gvardeysk,54.6477,21.0651,46.0,71,45,15.01,RU,1732569184
304,puerto aysen,-45.4,-72.7,51.96,99,100,2.06,CL,1732569184
305,cannonvale,-20.2833,148.7,78.19,77,95,13.49,AU,1732569184
306,tukrah,32.5341,20.5791,61.05,60,31,12.03,LY,1732569184
307,nuuk,64.1835,-51.7216,27.21,93,40,15.01,GL,1732569184
308,bowen,-20.0167,148.2333,77.95,75,77,13.56,AU,1732569184
309,san pedro pochutla,15.7333,-96.4667,85.71,63,10,6.06,MX,1732569184
310,nuriootpa,-34.4833,139.0,70.0,77,100,5.35,AU,1732569184
311,nuku'alofa,-21.1333,-175.2,76.42,81,100,16.53,TO,1732569185
312,bayanhongor,46.7167,100.1167,-11.94,87,33,1.05,MN,1732569185
313,kapuskasing,49.4169,-82.4331,30.72,87,100,3.18,CA,1732569185
314,bafoulabe,13.8065,-10.8321,84.02,15,0,6.71,ML,1732569185
315,horsham,51.064,-0.3272,45.01,78,0,6.91,GB,1732569185
316,glace bay,46.1969,-59.957,44.96,91,100,7.0,CA,1732569185
317,dhuusamarreeb,5.535,46.3861,78.89,70,32,13.15,SO,1732569185
318,codrington,-38.2667,141.9667,62.64,88,3,6.62,AU,1732569185
319,al hufuf,25.3646,49.5653,73.74,60,0,2.3,SA,1732569185
320,uturoa,-16.7333,-151.4333,80.11,80,97,13.15,PF,1732569186
321,cockburn town,21.4612,-71.1419,80.4,81,53,22.35,TC,1732568921
322,saginaw,43.3334,-84.0333,45.45,95,100,2.3,US,1732568936
323,rongelap,11.1635,166.8941,83.1,82,50,18.63,MH,1732569186
324,apatity,67.5641,33.4031,34.92,96,100,10.58,RU,1732569187
325,waddan,29.1614,16.139,57.18,59,99,6.44,LY,1732569187
326,klyuchi,52.2667,79.1667,10.72,92,49,2.89,RU,1732569187
327,mahina,-17.5065,-149.489,85.77,70,0,19.57,PF,1732569187
328,happy valley-goose bay,53.3168,-60.3315,39.51,87,100,9.22,CA,1732569187
329,yeppoon,-23.1333,150.7333,74.89,80,51,14.29,AU,1732569187
330,tobruk,32.0836,23.9764,61.77,58,91,17.02,LY,1732569188
331,al muwayh,22.4333,41.7583,69.82,71,0,9.89,SA,1732569188
332,kazerun,29.6195,51.6541,62.11,66,99,2.08,IR,1732569188
333,las palmas,28.4204,-14.0131,68.79,88,20,10.36,ES,1732569063
334,naze,28.3667,129.4833,71.13,69,86,18.32,JP,1732569188
335,fayroz koh,34.5195,65.2509,36.5,47,4,2.53,AF,1732569188
336,longmen,24.9597,118.0889,62.58,88,26,5.79,CN,1732569189
337,andilamena,-17.0167,48.5833,66.07,88,100,4.41,MG,1732569189
338,morondava,-20.2833,44.2833,79.18,85,8,1.92,MG,1732569189
339,port hedland,-20.3167,118.5667,82.45,69,97,11.5,AU,1732569189
340,port blair,11.6667,92.75,80.53,82,100,13.11,IN,1732569189
341,dapchi,12.4904,11.4944,71.29,24,6,9.35,NG,1732569189
342,mizque,-17.941,-65.3402,82.15,44,98,15.52,BO,1732569189
343,callao,-12.0667,-77.15,71.89,73,0,14.97,PE,1732569133
344,magalia,39.8121,-121.5783,47.95,93,100,1.99,US,1732569190
345,keflavik,64.0049,-22.5624,25.23,74,0,6.91,IS,1732569190
346,pokrovskoye,47.4157,38.8971,33.73,81,35,14.38,RU,1732569190
347,pisco,-13.7,-76.2167,73.45,68,0,24.16,PE,1732569190
348,revda,56.801,59.9303,22.5,89,54,2.48,RU,1732569190
349,banda aceh,5.5577,95.3222,77.5,90,100,5.19,ID,1732569190
350,daru,-9.0763,143.2092,80.26,88,85,12.33,PG,1732569190
351,saint martinville,30.1252,-91.8335,80.08,67,75,16.11,US,1732569191
352,alegrete,-29.7831,-55.7919,70.48,96,100,8.61,BR,1732569191
353,pyapon,16.2833,95.6833,71.06,85,100,6.78,MM,1732569191
354,singkil,-7.9855,111.4161,77.63,90,85,4.16,ID,1732569191
355,kulhudhuffushi,6.6221,73.07,82.02,73,100,7.56,MV,1732569191
356,ryotsu-minato,38.0833,138.4333,45.72,68,100,4.83,JP,1732569018
357,ardabil,38.2498,48.2933,40.55,100,100,6.91,IR,1732569192
358,promyshlennovskiy,55.4833,86.2,21.97,99,98,3.8,RU,1732569192
359,sparta,43.9441,-90.8129,35.74,93,100,11.5,US,1732569192
360,pajara,28.3504,-14.1076,69.31,79,79,6.11,ES,1732569192
361,puyang,29.4603,119.8861,46.58,81,90,4.9,CN,1732569192
362,san julian,21.0167,-102.1667,78.94,14,82,3.67,MX,1732569192
363,east london,-33.0153,27.9116,72.28,82,97,18.79,ZA,1732569192
364,carutapera,-1.195,-46.02,80.17,76,58,9.48,BR,1732569193
365,san antonio de pale,-1.4014,5.6325,79.03,82,100,9.8,GQ,1732569193
366,ciudad satelite,19.5167,-99.25,73.9,16,0,7.14,MX,1732569193
367,tlahualilo de zaragoza,26.1167,-103.45,86.11,16,5,1.43,MX,1732569193
368,nago,26.5881,127.9761,72.61,76,82,8.77,JP,1732569193
369,suva,-18.1416,178.4415,78.28,89,75,4.61,FJ,1732569193
370,bikenibeu village,1.3673,173.1241,82.54,80,11,20.94,KI,1732569193
371,yangambi,0.8102,24.4336,70.54,97,90,2.21,CD,1732569193
372,morehead city,34.7229,-76.726,66.2,71,0,6.91,US,1732569131
373,westport,41.1415,-73.3579,52.29,46,0,8.05,US,1732569058
374,carbonear,47.7332,-53.2148,43.23,97,100,2.86,CA,1732569194
375,poronaysk,49.2167,143.1167,19.74,76,10,3.91,RU,1732569194
376,stavern,59.0,10.0333,47.17,90,38,24.7,NO,1732569195
377,saudarkrokur,65.7461,-19.6394,15.91,78,4,14.74,IS,1732569195
378,bloemhof,-27.6469,25.607,76.03,38,1,10.89,ZA,1732569195
379,fort st. john,56.2499,-120.8529,-0.94,92,43,3.6,CA,1732569195
380,alamar,23.1583,-82.2769,79.03,74,83,16.91,CU,1732569195
381,naama,33.2667,-0.3167,54.41,50,90,6.22,DZ,1732569195
382,mamontovo,52.7055,81.6244,17.46,92,55,4.16,RU,1732569195
383,kiunga,-6.1219,141.2906,74.17,100,95,0.51,PG,1732569195
384,kirakira,-10.4544,161.9205,84.0,76,80,4.97,SB,1732569196
385,barclayville,4.6797,-8.2339,78.17,84,47,3.96,LR,1732569196
386,tonghua,41.7201,125.9219,32.36,100,100,1.5,CN,1732569196
387,pasuquin,18.3328,120.6177,77.0,81,22,4.68,PH,1732569196
388,yunyang,33.4474,112.7142,36.93,40,0,4.9,CN,1732569196
389,arteche,12.2645,125.4048,77.83,91,100,7.45,PH,1732569196
390,olinda,-8.0089,-34.8553,80.33,78,20,6.91,BR,1732568949
391,fort saskatchewan,53.7168,-113.2187,10.78,92,32,7.9,CA,1732569197
392,sao fidelis,-21.6461,-41.7469,68.83,83,36,5.35,BR,1732569197
393,nola,40.922,14.5329,57.06,87,90,1.83,IT,1732569197
394,murun-kuren,49.6342,100.1625,8.64,70,20,9.26,MN,1732569197
395,usinsk,65.9939,57.5281,25.66,84,100,38.32,RU,1732569197
396,maputo,-25.9653,32.5892,78.48,78,0,10.36,MZ,1732569106
397,cascais,38.6979,-9.4215,61.05,76,100,1.01,PT,1732569198
398,pangai,-19.8,-174.35,76.69,82,100,15.26,TO,1732569198
399,sao vicente,-23.9631,-46.3919,75.97,26,13,4.72,BR,1732569198
400,al hamul,31.3115,31.1477,56.95,75,100,10.54,EG,1732569198
401,antsiranana,-12.2787,49.2917,78.13,83,95,16.28,MG,1732569198
402,luderitz,-26.6481,15.1594,60.39,85,9,17.45,NA,1732569198
403,yermakovskoye,53.2831,92.4003,15.35,91,20,3.69,RU,1732569199
404,ca mau,9.1769,105.15,77.9,89,100,7.74,VN,1732569199
405,pacific grove,36.6177,-121.9166,64.65,88,100,28.99,US,1732569199
406,ticleni,44.8833,23.4,37.45,51,100,1.43,RO,1732569199
407,sakchu-up,40.3894,125.0467,39.79,98,100,5.12,KP,1732569199
408,panshan,41.1881,122.0494,26.17,70,98,8.59,CN,1732569200
409,kem',64.9555,34.5793,39.4,99,100,15.55,RU,1732569200
410,vilyuysk,63.7553,121.6247,-16.71,95,100,4.38,RU,1732569200
411,loango,-4.6719,11.8312,78.22,88,93,4.65,CG,1732569200
412,nizhniy odes,63.6445,54.856,22.57,87,100,16.24,RU,1732569200
413,gweru,-19.45,29.8167,66.33,62,96,6.49,ZW,1732568936
414,abbeville,50.1,1.8333,45.48,87,100,9.19,FR,1732569150
415,amahai,-3.3333,128.9167,79.03,82,98,4.36,ID,1732569201
416,shiwan,22.9969,113.0799,61.95,60,100,17.76,CN,1732568931
417,rumonge,-3.9736,29.4386,71.24,84,67,3.44,BI,1732569201
418,kajiado,-1.8524,36.7768,61.14,90,99,6.51,KE,1732569201
419,tiganesti,43.9,25.3667,38.03,51,48,4.03,RO,1732569201
420,atar,20.5169,-13.0499,83.19,12,0,9.78,MR,1732569201
421,port saint john's,-31.6229,29.5448,75.67,89,100,17.49,ZA,1732569202
422,timbuktu,16.7735,-3.0074,80.49,11,8,10.0,ML,1732569202
423,portland,45.5234,-122.6762,52.02,84,75,7.0,US,1732569202
424,pauini,-7.7136,-66.9764,80.15,80,100,1.39,BR,1732569202
425,morant bay,17.8815,-76.4093,78.39,89,100,11.39,JM,1732569202
426,kibi,6.1649,-0.5538,73.09,86,2,2.28,GH,1732569202
427,krasnoznamensk,55.5994,37.0386,27.81,93,0,8.95,RU,1732569202
428,ridder,50.355,83.5133,21.94,75,28,5.26,KZ,1732568940
429,great bend,38.3645,-98.7648,42.93,42,0,12.66,US,1732569203
430,cold lake,54.4502,-110.2017,14.34,70,82,6.71,CA,1732569203
431,nueva concepcion,14.2,-91.3,84.18,67,0,6.96,GT,1732569203
432,lucapa,-8.4192,20.7447,63.52,97,100,2.01,AO,1732569203
433,hacienda huancane,-15.8222,-70.8856,49.87,57,100,3.67,PE,1732569203
434,sao joao da barra,-21.6403,-41.0511,73.49,68,10,10.25,BR,1732569203
435,at taj,24.2049,23.2857,50.85,50,0,10.51,LY,1732569203
436,castillos,-34.1667,-53.8333,68.85,96,100,7.54,UY,1732569204
437,ribeira brava,32.65,-17.0667,69.71,83,100,2.06,PT,1732569204
438,la foa,-21.7108,165.8276,76.55,77,71,2.28,NC,1732569204
439,tamanrasset,22.785,5.5228,62.51,31,0,3.44,DZ,1732569204
440,togur,58.3631,82.8265,19.26,90,100,6.26,RU,1732569204
441,yatou,37.15,122.3833,37.58,55,3,17.38,CN,1732569204
442,leava,-14.3,-178.1667,81.75,78,100,12.37,WF,1732569204
443,manokwari,-0.8667,134.0833,79.05,72,100,3.8,ID,1732569022
444,la tuque,47.4334,-72.7824,36.61,82,100,6.51,CA,1732568936
445,pandan,14.0453,124.1694,78.85,87,83,9.51,PH,1732569205
446,luau,-10.7073,22.2247,64.83,97,100,1.81,AO,1732569205
447,ingeniero jacobacci,-41.3427,-69.5448,68.52,21,12,32.35,AR,1732569205
448,fada,7.25,4.0667,73.81,88,48,2.73,NG,1732569205
449,kuala tungkal,-0.8167,103.4667,77.32,92,100,2.42,ID,1732569205
450,port alfred,-33.5906,26.891,69.19,85,100,7.0,ZA,1732569205
451,bantogon,6.5333,124.0333,79.36,83,100,5.28,PH,1732569205
452,sitka,57.0531,-135.33,40.89,56,100,5.75,US,1732569205
453,mejit,10.2753,170.8646,82.87,83,60,18.63,MH,1732569205
454,antonio enes,-16.2325,39.9086,79.43,81,23,2.33,MZ,1732569206
455,aswan,24.0934,32.907,57.7,43,0,10.07,EG,1732569206
456,mendi,-6.1761,143.6513,56.19,95,85,3.04,PG,1732569206
457,novofedorivka,46.1713,32.3178,32.7,65,96,11.63,UA,1732569206
458,steamboat springs,40.485,-106.8317,31.33,64,0,1.01,US,1732569206
459,remire-montjoly,4.9167,-52.2667,84.24,79,90,9.22,GF,1732569206
460,baillif,16.0202,-61.7463,82.62,71,11,12.37,GP,1732569206
461,algarrobo,10.1869,-74.5753,85.86,73,100,4.52,CO,1732569206
462,galesong,-5.3166,119.3661,79.9,82,87,6.87,ID,1732569207
463,dunedin,-45.8742,170.5036,58.42,72,80,6.64,NZ,1732569207
464,khorixas,-20.3667,14.9667,67.26,38,3,12.06,NA,1732569207
465,nioki,-2.7167,17.6833,72.01,97,78,1.36,CD,1732569207
466,fyodorovka,53.6314,62.7078,16.14,92,9,3.83,KZ,1732569207
467,trairi,-3.2778,-39.2689,78.96,74,16,9.22,BR,1732569128
468,crane,31.3974,-102.3501,62.62,34,89,14.83,US,1732569207
469,mahajanga,-15.7167,46.3167,81.63,81,100,4.7,MG,1732569207
470,paramonga,-10.6667,-77.8333,68.94,81,79,10.33,PE,1732569208
471,copiapo,-27.3667,-70.3333,77.29,35,60,8.19,CL,1732568959
472,champerico,14.3,-91.9167,81.79,71,0,11.43,GT,1732569208
473,oranjemund,-28.55,16.4333,60.87,88,67,6.33,NA,1732569208
474,les cayes,18.2,-73.75,79.34,81,100,1.72,HT,1732569208
475,twon-brass,4.3151,6.2418,81.99,75,100,10.45,NG,1732569208
476,cibitoke,-2.8833,29.25,61.99,89,84,3.65,BI,1732569073
477,wakkanai,45.4094,141.6739,34.57,56,9,5.57,JP,1732569208
478,aleg,17.0481,-13.9209,87.04,11,0,10.58,MR,1732569209
479,inirida,3.8653,-67.9239,88.34,65,84,1.1,CO,1732569209
480,telsiai,55.9814,22.2472,44.47,76,100,19.84,LT,1732569209
481,guerrero negro,27.9769,-114.0611,73.35,51,55,10.27,MX,1732569209
482,dombarovskiy,50.7587,59.5386,24.3,81,5,7.67,RU,1732569209
483,ulladulla,-35.35,150.4667,71.11,69,100,7.02,AU,1732569209
484,puerto san jose,13.9256,-90.8244,89.65,55,40,6.91,GT,1732569209
485,chibougamau,49.9168,-74.3659,29.82,100,75,3.44,CA,1732569210
486,shagonar,51.5333,92.8,8.56,99,98,2.62,RU,1732569210
487,beyneu,45.3167,55.2,35.35,81,0,9.55,KZ,1732569210
488,nobres,-14.7203,-56.3275,84.04,73,79,4.05,BR,1732569210
489,kavaratti,10.5669,72.642,82.38,67,89,7.47,IN,1732569211
490,rawson,-43.3002,-65.1023,68.83,44,60,30.71,AR,1732569211
491,shohimardon,39.9839,71.8028,41.76,45,82,8.97,UZ,1732569211
492,el granada,37.5027,-122.4694,56.35,93,100,4.61,US,1732569211
493,harstad,68.799,16.5293,32.16,92,100,6.53,NO,1732569211
494,kargasok,59.0556,80.8572,21.09,85,50,9.1,RU,1732569211
495,flin flon,54.7682,-101.865,13.19,88,100,6.15,CA,1732569212
496,nema,57.5067,50.5011,27.77,99,72,1.77,RU,1732569212
497,fortaleza,-3.7227,-38.5247,82.53,74,0,8.05,BR,1732568926
498,darwin,-12.4611,130.8418,78.78,87,92,3.44,AU,1732569212
499,yuzhno-kurilsk,44.0306,145.8556,34.43,69,10,13.78,RU,1732569212
500,tsiombe,-25.3,45.4833,75.85,89,70,13.49,MG,1732569212
501,arish,31.1316,33.7984,61.02,57,100,12.57,EG,1732569212
502,iwanai,42.9744,140.5089,32.47,80,99,6.85,JP,1732569212
503,wajir,1.7471,40.0573,77.88,80,78,13.15,KE,1732569212
504,nogliki,51.8333,143.1667,10.94,88,15,6.76,RU,1732569213
505,grenaa,56.4158,10.8783,50.22,92,100,3.0,DK,1732569213
506,shenjiamen,29.9576,122.298,51.69,66,100,28.21,CN,1732569213
507,nabire,-3.3667,135.4833,75.22,95,100,3.89,ID,1732569213
508,male,4.1748,73.5089,82.35,83,75,5.75,MV,1732569044
509,tapes,-30.6733,-51.3958,75.81,73,100,3.76,BR,1732569213
510,lavington,-36.05,146.9333,68.72,100,100,1.99,AU,1732569214
511,mongo,12.1844,18.693,73.92,19,23,7.25,TD,1732569187
512,qujing,25.4833,103.7833,43.16,91,100,4.85,CN,1732569214
513,ad dilam,23.9915,47.1627,73.35,33,6,13.15,SA,1732569214
514,mujiayingzi,42.1167,118.7833,15.8,50,8,16.15,CN,1732569214
515,bambari,5.768,20.6757,75.92,39,55,1.12,CF,1732569127
516,sebis,46.3667,22.1167,38.73,86,100,4.52,RO,1732569064
517,osceola,28.042,-81.1242,76.95,50,0,7.27,US,1732569214
518,hyesan,41.4017,128.1778,40.66,90,100,8.46,KP,1732569215
519,lanzhou,36.0564,103.7922,26.19,47,18,1.92,CN,1732569215
520,yarmouth,41.7057,-70.2286,49.01,62,0,8.99,US,1732569215
521,yakeshi,49.2833,120.7333,11.39,95,100,9.4,CN,1732569215
522,sandur,15.1,76.55,66.2,74,100,6.2,IN,1732569215
523,yaren,-0.5472,166.916,82.17,79,46,19.19,NR,1732569215
524,graaff-reinet,-32.2522,24.5308,67.93,77,32,4.65,ZA,1732569215
525,san fernando,15.0286,120.6898,74.16,88,29,4.85,PH,1732569215
526,dera ghazi khan,30.0561,70.6348,65.75,33,35,4.68,PK,1732569216
527,gannat,46.1002,3.1989,48.2,87,100,4.16,FR,1732569216
528,nemuro,43.3236,145.575,35.42,68,8,10.69,JP,1732569216
529,mandalgovi,45.7625,106.2708,11.14,53,98,18.01,MN,1732569216
530,cabedelo,-6.9811,-34.8339,81.27,76,2,8.34,BR,1732569216
531,lorengau,-2.0226,147.2712,82.35,81,99,9.04,PG,1732569216
532,ma'rib,15.4591,45.3253,69.19,38,39,0.78,YE,1732569216
533,pimentel,-6.8367,-79.9342,73.69,64,0,21.85,PE,1732569216
534,mount isa,-20.7333,139.5,73.17,94,100,2.3,AU,1732569217
535,prince rupert,54.3161,-130.3201,33.64,48,100,1.36,CA,1732569019
536,turpan,42.9333,89.1667,30.67,43,0,3.18,CN,1732569217
537,noumea,-22.2763,166.4572,73.0,94,98,11.43,NC,1732569217
538,el salto,20.3333,-104.5,80.6,31,73,2.75,MX,1732569217
539,yantarnyy,54.8717,19.9381,49.98,68,94,25.59,RU,1732569217
540,praia da vitoria,38.7333,-27.0667,64.54,91,76,10.54,PT,1732569218
541,broome,42.2506,-75.833,45.63,63,0,3.44,US,1732569218
542,kete krachi,7.7939,-0.0498,82.78,43,3,5.26,GH,1732569218
543,lodja,-3.4833,23.4333,69.13,99,74,1.36,CD,1732569218
544,saint-flour,45.0833,3.0,42.19,95,100,3.74,FR,1732569218
545,smithers,54.7804,-127.1743,18.86,67,54,2.89,CA,1732569218
546,hirara,24.8,125.2833,78.21,75,3,14.43,JP,1732569218
547,santana,-0.0583,-51.1817,86.18,74,75,8.05,BR,1732568934
548,akbarpur,26.4167,82.55,63.21,47,0,4.36,IN,1732569218
549,laguna,38.421,-121.4238,57.34,80,100,10.36,US,1732569219
550,volodarka,49.5248,29.9122,27.16,80,49,5.44,UA,1732569219
551,kristiansund,63.1115,7.732,43.45,65,0,4.61,NO,1732568969
552,smidovich,48.6,133.8167,22.57,71,100,13.58,RU,1732569219
553,cidreira,-30.1811,-50.2056,70.95,84,100,10.83,BR,1732569074
554,mezhdurechenskiy,59.6,65.9333,24.82,91,100,5.77,RU,1732569220
555,auki,-8.7676,160.7034,82.2,75,45,3.44,SB,1732569220
556,belonia,23.2528,91.4514,60.75,81,100,3.98,IN,1732569220
557,linqiong,30.4159,103.4609,44.83,78,84,0.65,CN,1732569220
558,byford,-32.2167,116.0,50.72,69,0,10.36,AU,1732569220
559,coalcoman de vazquez pallares,18.7833,-103.15,81.39,54,13,3.98,MX,1732569220
560,lautoka,-17.6167,177.4667,80.46,74,75,8.05,FJ,1732569220
561,colares,38.7992,-9.4469,60.89,78,100,1.88,PT,1732569221
562,birnin kudu,11.4459,9.4984,69.69,25,37,7.38,NG,1732569221
563,fort mcmurray,56.7268,-111.381,17.56,80,18,5.46,CA,1732569090
564,chinchilla,-26.75,150.6333,69.03,82,1,3.0,AU,1732569221
